[{
    "address_components": [{
        "long_name": "121",
        "short_name": "121",
        "types": ["street_number"]
    }, {
        "long_name": "Wakelee Avenue",
        "short_name": "Wakelee Ave",
        "types": ["route"]
    }, {
        "long_name": "Ansonia",
        "short_name": "Ansonia",
        "types": ["locality", "political"]
    }, {
        "long_name": "New Haven County",
        "short_name": "New Haven County",
        "types": ["administrative_area_level_2", "political"]
    }, {
        "long_name": "Connecticut",
        "short_name": "CT",
        "types": ["administrative_area_level_1", "political"]
    }, {
        "long_name": "United States",
        "short_name": "US",
        "types": ["country", "political"]
    }, {
        "long_name": "06401",
        "short_name": "06401",
        "types": ["postal_code"]
    }, {
        "long_name": "1198",
        "short_name": "1198",
        "types": ["postal_code_suffix"]
    }],
    "formatted_address": "121 Wakelee Ave, Ansonia, CT 06401, USA",
    "geometry": {
        "bounds": {
            "northeast": {
                "lat": 41.3403709,
                "lng": -73.0909065
            },
            "southwest": {
                "lat": 41.33989469999999,
                "lng": -73.09124059999999
            }
        },
        "location": {
            "lat": 41.3401283,
            "lng": -73.091115
        },
        "location_type": "ROOFTOP",
        "viewport": {
            "northeast": {
                "lat": 41.3414817802915,
                "lng": -73.08972456970848
            },
            "southwest": {
                "lat": 41.3387838197085,
                "lng": -73.0924225302915
            }
        }
    },
    "place_id": "ChIJA6D9I4Pg54kRghnxsQvMT2M",
    "types": ["premise"],
    "name": "ANSONIA COUNSELING SERVICES"
}, {
    "address_components": [{
        "long_name": "205",
        "short_name": "205",
        "types": ["street_number"]
    }, {
        "long_name": "Wakelee Avenue",
        "short_name": "Wakelee Ave",
        "types": ["route"]
    }, {
        "long_name": "Ansonia",
        "short_name": "Ansonia",
        "types": ["locality", "political"]
    }, {
        "long_name": "New Haven County",
        "short_name": "New Haven County",
        "types": ["administrative_area_level_2", "political"]
    }, {
        "long_name": "Connecticut",
        "short_name": "CT",
        "types": ["administrative_area_level_1", "political"]
    }, {
        "long_name": "United States",
        "short_name": "US",
        "types": ["country", "political"]
    }, {
        "long_name": "06401",
        "short_name": "06401",
        "types": ["postal_code"]
    }, {
        "long_name": "1234",
        "short_name": "1234",
        "types": ["postal_code_suffix"]
    }],
    "formatted_address": "205 Wakelee Ave, Ansonia, CT 06401, USA",
    "geometry": {
        "bounds": {
            "northeast": {
                "lat": 41.3462952,
                "lng": -73.0910482
            },
            "southwest": {
                "lat": 41.3462062,
                "lng": -73.0913415
            }
        },
        "location": {
            "lat": 41.3462551,
            "lng": -73.0911761
        },
        "location_type": "ROOFTOP",
        "viewport": {
            "northeast": {
                "lat": 41.3475996802915,
                "lng": -73.0898458697085
            },
            "southwest": {
                "lat": 41.3449017197085,
                "lng": -73.0925438302915
            }
        }
    },
    "place_id": "ChIJJZuEg57g54kREOlmm9u4-0E",
    "types": ["premise"],
    "name": "CATHOLIC CHARITIES, INC."
}, {
    "address_components": [{
        "long_name": "592",
        "short_name": "592",
        "types": ["street_number"]
    }, {
        "long_name": "Kossuth Street",
        "short_name": "Kossuth St",
        "types": ["route"]
    }, {
        "long_name": "East Side",
        "short_name": "East Side",
        "types": ["neighborhood", "political"]
    }, {
        "long_name": "Bridgeport",
        "short_name": "Bridgeport",
        "types": ["locality", "political"]
    }, {
        "long_name": "Fairfield County",
        "short_name": "Fairfield County",
        "types": ["administrative_area_level_2", "political"]
    }, {
        "long_name": "Connecticut",
        "short_name": "CT",
        "types": ["administrative_area_level_1", "political"]
    }, {
        "long_name": "United States",
        "short_name": "US",
        "types": ["country", "political"]
    }, {
        "long_name": "06608",
        "short_name": "06608",
        "types": ["postal_code"]
    }, {
        "long_name": "2204",
        "short_name": "2204",
        "types": ["postal_code_suffix"]
    }],
    "formatted_address": "592 Kossuth St, Bridgeport, CT 06608, USA",
    "geometry": {
        "bounds": {
            "northeast": {
                "lat": 41.1865343,
                "lng": -73.1822031
            },
            "southwest": {
                "lat": 41.1864584,
                "lng": -73.18248179999999
            }
        },
        "location": {
            "lat": 41.1865041,
            "lng": -73.1823236
        },
        "location_type": "ROOFTOP",
        "viewport": {
            "northeast": {
                "lat": 41.1878453302915,
                "lng": -73.18099346970848
            },
            "southwest": {
                "lat": 41.1851473697085,
                "lng": -73.1836914302915
            }
        }
    },
    "place_id": "ChIJCcz_gH8O6IkRsUTdtjDBuFE",
    "types": ["premise"],
    "name": "PROJECT COURAGE"
}, {
    "address_components": [{
        "long_name": "693",
        "short_name": "693",
        "types": ["street_number"]
    }, {
        "long_name": "Bloomfield Avenue",
        "short_name": "Bloomfield Ave",
        "types": ["route"]
    }, {
        "long_name": "Bloomfield",
        "short_name": "Bloomfield",
        "types": ["locality", "political"]
    }, {
        "long_name": "Hartford County",
        "short_name": "Hartford County",
        "types": ["administrative_area_level_2", "political"]
    }, {
        "long_name": "Connecticut",
        "short_name": "CT",
        "types": ["administrative_area_level_1", "political"]
    }, {
        "long_name": "United States",
        "short_name": "US",
        "types": ["country", "political"]
    }, {
        "long_name": "06002",
        "short_name": "06002",
        "types": ["postal_code"]
    }],
    "formatted_address": "693 Bloomfield Ave, Bloomfield, CT 06002, USA",
    "geometry": {
        "bounds": {
            "northeast": {
                "lat": 41.8274137,
                "lng": -72.7376737
            },
            "southwest": {
                "lat": 41.8270908,
                "lng": -72.7380821
            }
        },
        "location": {
            "lat": 41.8272493,
            "lng": -72.7378858
        },
        "location_type": "ROOFTOP",
        "viewport": {
            "northeast": {
                "lat": 41.8286012302915,
                "lng": -72.73652891970849
            },
            "southwest": {
                "lat": 41.8259032697085,
                "lng": -72.73922688029151
            }
        }
    },
    "place_id": "ChIJU5Y_k-aq54kR7NLQvj8VMfQ",
    "types": ["premise"],
    "name": "NORTH CENTRAL COUNSELING SERVICES"
}, {
    "address_components": [{
        "long_name": "395",
        "short_name": "395",
        "types": ["street_number"]
    }, {
        "long_name": "North Main Street",
        "short_name": "N Main St",
        "types": ["route"]
    }, {
        "long_name": "Downtown",
        "short_name": "Downtown",
        "types": ["neighborhood", "political"]
    }, {
        "long_name": "Bristol",
        "short_name": "Bristol",
        "types": ["locality", "political"]
    }, {
        "long_name": "Hartford County",
        "short_name": "Hartford County",
        "types": ["administrative_area_level_2", "political"]
    }, {
        "long_name": "Connecticut",
        "short_name": "CT",
        "types": ["administrative_area_level_1", "political"]
    }, {
        "long_name": "United States",
        "short_name": "US",
        "types": ["country", "political"]
    }, {
        "long_name": "06010",
        "short_name": "06010",
        "types": ["postal_code"]
    }],
    "formatted_address": "395 N Main St, Bristol, CT 06010, USA",
    "geometry": {
        "bounds": {
            "northeast": {
                "lat": 41.6794226,
                "lng": -72.9473568
            },
            "southwest": {
                "lat": 41.6792419,
                "lng": -72.9479175
            }
        },
        "location": {
            "lat": 41.67936419999999,
            "lng": -72.9477654
        },
        "location_type": "ROOFTOP",
        "viewport": {
            "northeast": {
                "lat": 41.6806812302915,
                "lng": -72.9462881697085
            },
            "southwest": {
                "lat": 41.67798326970851,
                "lng": -72.9489861302915
            }
        }
    },
    "place_id": "ChIJf8ETZ7W754kR7NvfpsxYo9I",
    "types": ["premise"],
    "name": "COMMUNITY HEALTH CENTER OF BRISTOL"
}, {
    "address_components": [{
        "long_name": "392",
        "short_name": "392",
        "types": ["street_number"]
    }, {
        "long_name": "Prospect Street",
        "short_name": "Prospect St",
        "types": ["route"]
    }, {
        "long_name": "Baden",
        "short_name": "Baden",
        "types": ["locality", "political"]
    }, {
        "long_name": "Beaver County",
        "short_name": "Beaver County",
        "types": ["administrative_area_level_2", "political"]
    }, {
        "long_name": "Pennsylvania",
        "short_name": "PA",
        "types": ["administrative_area_level_1", "political"]
    }, {
        "long_name": "United States",
        "short_name": "US",
        "types": ["country", "political"]
    }, {
        "long_name": "15005",
        "short_name": "15005",
        "types": ["postal_code"]
    }, {
        "long_name": "1822",
        "short_name": "1822",
        "types": ["postal_code_suffix"]
    }],
    "formatted_address": "392 Prospect St, Baden, PA 15005, USA",
    "geometry": {
        "bounds": {
            "northeast": {
                "lat": 40.6372269,
                "lng": -80.224519
            },
            "southwest": {
                "lat": 40.6371164,
                "lng": -80.2246785
            }
        },
        "location": {
            "lat": 40.6371784,
            "lng": -80.2246114
        },
        "location_type": "ROOFTOP",
        "viewport": {
            "northeast": {
                "lat": 40.6385206302915,
                "lng": -80.22324976970849
            },
            "southwest": {
                "lat": 40.6358226697085,
                "lng": -80.2259477302915
            }
        }
    },
    "place_id": "ChIJuw73pjFkNIgR_BI_6UDutUw",
    "types": ["premise"],
    "name": "NEW PROSPECTS"
}, {
    "address_components": [{
        "long_name": "3851",
        "short_name": "3851",
        "types": ["street_number"]
    }, {
        "long_name": "Main Street",
        "short_name": "Main St",
        "types": ["route"]
    }, {
        "long_name": "North End",
        "short_name": "North End",
        "types": ["neighborhood", "political"]
    }, {
        "long_name": "Bridgeport",
        "short_name": "Bridgeport",
        "types": ["locality", "political"]
    }, {
        "long_name": "Fairfield County",
        "short_name": "Fairfield County",
        "types": ["administrative_area_level_2", "political"]
    }, {
        "long_name": "Connecticut",
        "short_name": "CT",
        "types": ["administrative_area_level_1", "political"]
    }, {
        "long_name": "United States",
        "short_name": "US",
        "types": ["country", "political"]
    }, {
        "long_name": "06606",
        "short_name": "06606",
        "types": ["postal_code"]
    }, {
        "long_name": "2814",
        "short_name": "2814",
        "types": ["postal_code_suffix"]
    }],
    "formatted_address": "3851 Main St, Bridgeport, CT 06606, USA",
    "geometry": {
        "bounds": {
            "northeast": {
                "lat": 41.21334969999999,
                "lng": -73.21157099999999
            },
            "southwest": {
                "lat": 41.2127997,
                "lng": -73.2122857
            }
        },
        "location": {
            "lat": 41.2131962,
            "lng": -73.21192529999999
        },
        "location_type": "ROOFTOP",
        "viewport": {
            "northeast": {
                "lat": 41.2144236802915,
                "lng": -73.21057936970848
            },
            "southwest": {
                "lat": 41.2117257197085,
                "lng": -73.2132773302915
            }
        }
    },
    "place_id": "ChIJNRTEA8IO6IkRWIfTRctvhhs",
    "types": ["premise"],
    "name": "NEW ERA REHABILITATION CENTER INC."
}, {
    "address_components": [{
        "long_name": "83",
        "short_name": "83",
        "types": ["street_number"]
    }, {
        "long_name": "South Canaan Road",
        "short_name": "S Canaan Rd",
        "types": ["route"]
    }, {
        "long_name": "Falls Village",
        "short_name": "Falls Village",
        "types": ["neighborhood", "political"]
    }, {
        "long_name": "Canaan",
        "short_name": "Canaan",
        "types": ["locality", "political"]
    }, {
        "long_name": "Litchfield County",
        "short_name": "Litchfield County",
        "types": ["administrative_area_level_2", "political"]
    }, {
        "long_name": "Connecticut",
        "short_name": "CT",
        "types": ["administrative_area_level_1", "political"]
    }, {
        "long_name": "United States",
        "short_name": "US",
        "types": ["country", "political"]
    }, {
        "long_name": "06031",
        "short_name": "06031",
        "types": ["postal_code"]
    }],
    "formatted_address": "83 S Canaan Rd, Falls Village, CT 06031, USA",
    "geometry": {
        "location": {
            "lat": 41.9569416,
            "lng": -73.3473697
        },
        "location_type": "RANGE_INTERPOLATED",
        "viewport": {
            "northeast": {
                "lat": 41.9582905802915,
                "lng": -73.3460207197085
            },
            "southwest": {
                "lat": 41.9555926197085,
                "lng": -73.34871868029151
            }
        }
    },
    "place_id": "Eiw4MyBTIENhbmFhbiBSZCwgRmFsbHMgVmlsbGFnZSwgQ1QgMDYwMzEsIFVTQSIaEhgKFAoSCdnMw_WheOeJEfmPiJSvz4epEFM",
    "types": ["street_address"],
    "name": "MCCALL FOUNDATION, INC."
}, {
    "address_components": [{
        "long_name": "201",
        "short_name": "201",
        "types": ["subpremise"]
    }, {
        "long_name": "35",
        "short_name": "35",
        "types": ["street_number"]
    }, {
        "long_name": "Tower Lane",
        "short_name": "Tower Ln",
        "types": ["route"]
    }, {
        "long_name": "Avon",
        "short_name": "Avon",
        "types": ["locality", "political"]
    }, {
        "long_name": "Hartford County",
        "short_name": "Hartford County",
        "types": ["administrative_area_level_2", "political"]
    }, {
        "long_name": "Connecticut",
        "short_name": "CT",
        "types": ["administrative_area_level_1", "political"]
    }, {
        "long_name": "United States",
        "short_name": "US",
        "types": ["country", "political"]
    }, {
        "long_name": "06001",
        "short_name": "06001",
        "types": ["postal_code"]
    }, {
        "long_name": "4237",
        "short_name": "4237",
        "types": ["postal_code_suffix"]
    }],
    "formatted_address": "35 Tower Ln #201, Avon, CT 06001, USA",
    "geometry": {
        "bounds": {
            "northeast": {
                "lat": 41.8074381,
                "lng": -72.8435407
            },
            "southwest": {
                "lat": 41.8070367,
                "lng": -72.8438646
            }
        },
        "location": {
            "lat": 41.8072752,
            "lng": -72.84365509999999
        },
        "location_type": "ROOFTOP",
        "viewport": {
            "northeast": {
                "lat": 41.8085863802915,
                "lng": -72.84235366970852
            },
            "southwest": {
                "lat": 41.8058884197085,
                "lng": -72.84505163029152
            }
        }
    },
    "place_id": "EiUyMDEsIDM1IFRvd2VyIExuLCBBdm9uLCBDVCAwNjAwMSwgVVNBIh8aHQoWChQKEgkdRxhsL6nniRGFAa-P_Yo9aBIDMjAx",
    "types": ["subpremise"],
    "name": "RUSHFORD OF AVON"
}, {
    "address_components": [{
        "long_name": "1",
        "short_name": "1",
        "types": ["street_number"]
    }, {
        "long_name": "Lafayette Circle",
        "short_name": "Lafayette Cir",
        "types": ["route"]
    }, {
        "long_name": "Wellesley",
        "short_name": "Wellesley",
        "types": ["locality", "political"]
    }, {
        "long_name": "Norfolk County",
        "short_name": "Norfolk County",
        "types": ["administrative_area_level_2", "political"]
    }, {
        "long_name": "Massachusetts",
        "short_name": "MA",
        "types": ["administrative_area_level_1", "political"]
    }, {
        "long_name": "United States",
        "short_name": "US",
        "types": ["country", "political"]
    }, {
        "long_name": "02482",
        "short_name": "02482",
        "types": ["postal_code"]
    }, {
        "long_name": "4419",
        "short_name": "4419",
        "types": ["postal_code_suffix"]
    }],
    "formatted_address": "1 Lafayette Cir, Wellesley, MA 02482, USA",
    "geometry": {
        "bounds": {
            "northeast": {
                "lat": 42.303383,
                "lng": -71.31105289999999
            },
            "southwest": {
                "lat": 42.3032995,
                "lng": -71.31121379999999
            }
        },
        "location": {
            "lat": 42.3033486,
            "lng": -71.3111077
        },
        "location_type": "ROOFTOP",
        "viewport": {
            "northeast": {
                "lat": 42.3046902302915,
                "lng": -71.30978436970848
            },
            "southwest": {
                "lat": 42.3019922697085,
                "lng": -71.31248233029149
            }
        }
    },
    "place_id": "ChIJYSVQJ76G44kRgCPMSMXd0NY",
    "types": ["premise"],
    "name": "CONNECTICUT RENAISSANCE INC."
}, {
    "address_components": [{
        "long_name": "982",
        "short_name": "982",
        "types": ["street_number"]
    }, {
        "long_name": "East Main Street",
        "short_name": "E Main St",
        "types": ["route"]
    }, {
        "long_name": "East Side",
        "short_name": "East Side",
        "types": ["neighborhood", "political"]
    }, {
        "long_name": "Bridgeport",
        "short_name": "Bridgeport",
        "types": ["locality", "political"]
    }, {
        "long_name": "Fairfield County",
        "short_name": "Fairfield County",
        "types": ["administrative_area_level_2", "political"]
    }, {
        "long_name": "Connecticut",
        "short_name": "CT",
        "types": ["administrative_area_level_1", "political"]
    }, {
        "long_name": "United States",
        "short_name": "US",
        "types": ["country", "political"]
    }, {
        "long_name": "06608",
        "short_name": "06608",
        "types": ["postal_code"]
    }],
    "formatted_address": "982 E Main St, Bridgeport, CT 06608, USA",
    "geometry": {
        "bounds": {
            "northeast": {
                "lat": 41.18816959999999,
                "lng": -73.1800616
            },
            "southwest": {
                "lat": 41.1879405,
                "lng": -73.1806237
            }
        },
        "location": {
            "lat": 41.1880776,
            "lng": -73.1804585
        },
        "location_type": "ROOFTOP",
        "viewport": {
            "northeast": {
                "lat": 41.18940403029149,
                "lng": -73.17899366970849
            },
            "southwest": {
                "lat": 41.18670606970849,
                "lng": -73.1816916302915
            }
        }
    },
    "place_id": "ChIJe-crN9UN6IkRtrXzmi2zL4A",
    "types": ["premise"],
    "name": "OPTIMUS HEALTH CARE, INC."
}, {
    "address_components": [{
        "long_name": "STE C",
        "short_name": "STE C",
        "types": ["subpremise"]
    }, {
        "long_name": "212",
        "short_name": "212",
        "types": ["street_number"]
    }, {
        "long_name": "Upton Road",
        "short_name": "Upton Rd",
        "types": ["route"]
    }, {
        "long_name": "Colchester Center",
        "short_name": "Colchester Center",
        "types": ["neighborhood", "political"]
    }, {
        "long_name": "Colchester",
        "short_name": "Colchester",
        "types": ["locality", "political"]
    }, {
        "long_name": "Colchester",
        "short_name": "Colchester",
        "types": ["administrative_area_level_3", "political"]
    }, {
        "long_name": "New London County",
        "short_name": "New London County",
        "types": ["administrative_area_level_2", "political"]
    }, {
        "long_name": "Connecticut",
        "short_name": "CT",
        "types": ["administrative_area_level_1", "political"]
    }, {
        "long_name": "United States",
        "short_name": "US",
        "types": ["country", "political"]
    }, {
        "long_name": "06415",
        "short_name": "06415",
        "types": ["postal_code"]
    }, {
        "long_name": "2712",
        "short_name": "2712",
        "types": ["postal_code_suffix"]
    }],
    "formatted_address": "212 Upton Rd STE C, Colchester, CT 06415, USA",
    "geometry": {
        "bounds": {
            "northeast": {
                "lat": 41.5788333,
                "lng": -72.3482408
            },
            "southwest": {
                "lat": 41.5785458,
                "lng": -72.3486386
            }
        },
        "location": {
            "lat": 41.5786656,
            "lng": -72.34845589999999
        },
        "location_type": "ROOFTOP",
        "viewport": {
            "northeast": {
                "lat": 41.5800385302915,
                "lng": -72.34709071970849
            },
            "southwest": {
                "lat": 41.5773405697085,
                "lng": -72.34978868029151
            }
        }
    },
    "place_id": "Ei5TVEUgQywgMjEyIFVwdG9uIFJkLCBDb2xjaGVzdGVyLCBDVCAwNjQxNSwgVVNBIiEaHwoWChQKEgnDSBzWEELmiRGwb75coGDiKhIFU1RFIEM",
    "types": ["subpremise"],
    "name": "UNITED COMMUNITY & FAMILY SERVICES INC."
}, {
    "address_components": [{
        "long_name": "399",
        "short_name": "399",
        "types": ["street_number"]
    }, {
        "long_name": "Mill Hill Avenue",
        "short_name": "Mill Hill Ave",
        "types": ["route"]
    }, {
        "long_name": "Boston Ave - Mill Hill",
        "short_name": "Boston Ave - Mill Hill",
        "types": ["neighborhood", "political"]
    }, {
        "long_name": "Bridgeport",
        "short_name": "Bridgeport",
        "types": ["locality", "political"]
    }, {
        "long_name": "Fairfield County",
        "short_name": "Fairfield County",
        "types": ["administrative_area_level_2", "political"]
    }, {
        "long_name": "Connecticut",
        "short_name": "CT",
        "types": ["administrative_area_level_1", "political"]
    }, {
        "long_name": "United States",
        "short_name": "US",
        "types": ["country", "political"]
    }, {
        "long_name": "06610",
        "short_name": "06610",
        "types": ["postal_code"]
    }],
    "formatted_address": "399 Mill Hill Ave, Bridgeport, CT 06610, USA",
    "geometry": {
        "bounds": {
            "northeast": {
                "lat": 41.1920445,
                "lng": -73.16545119999999
            },
            "southwest": {
                "lat": 41.1918705,
                "lng": -73.1656872
            }
        },
        "location": {
            "lat": 41.19198069999999,
            "lng": -73.1655921
        },
        "location_type": "ROOFTOP",
        "viewport": {
            "northeast": {
                "lat": 41.1933064802915,
                "lng": -73.16422021970848
            },
            "southwest": {
                "lat": 41.1906085197085,
                "lng": -73.16691818029149
            }
        }
    },
    "place_id": "ChIJQ3GIQzEM6IkRAEX32vJC_PM",
    "types": ["premise"],
    "name": "LIBERATION METHADONE CLINIC (BRIDGEPORT)"
}, {
    "address_components": [{
        "long_name": "1635",
        "short_name": "1635",
        "types": ["street_number"]
    }, {
        "long_name": "Fairfield Avenue",
        "short_name": "Fairfield Ave",
        "types": ["route"]
    }, {
        "long_name": "West End - West Side",
        "short_name": "West End - West Side",
        "types": ["neighborhood", "political"]
    }, {
        "long_name": "Bridgeport",
        "short_name": "Bridgeport",
        "types": ["locality", "political"]
    }, {
        "long_name": "Fairfield County",
        "short_name": "Fairfield County",
        "types": ["administrative_area_level_2", "political"]
    }, {
        "long_name": "Connecticut",
        "short_name": "CT",
        "types": ["administrative_area_level_1", "political"]
    }, {
        "long_name": "United States",
        "short_name": "US",
        "types": ["country", "political"]
    }, {
        "long_name": "06605",
        "short_name": "06605",
        "types": ["postal_code"]
    }, {
        "long_name": "1984",
        "short_name": "1984",
        "types": ["postal_code_suffix"]
    }],
    "formatted_address": "1635 Fairfield Ave, Bridgeport, CT 06605, USA",
    "geometry": {
        "bounds": {
            "northeast": {
                "lat": 41.1702807,
                "lng": -73.2124522
            },
            "southwest": {
                "lat": 41.170031,
                "lng": -73.2128306
            }
        },
        "location": {
            "lat": 41.1701402,
            "lng": -73.2126493
        },
        "location_type": "ROOFTOP",
        "viewport": {
            "northeast": {
                "lat": 41.1715048302915,
                "lng": -73.2112924197085
            },
            "southwest": {
                "lat": 41.1688068697085,
                "lng": -73.2139903802915
            }
        }
    },
    "place_id": "ChIJKSSTODkO6IkRYJIH0i4U76Q",
    "types": ["premise"],
    "name": "HORIZONS"
}, {
    "address_components": [{
        "long_name": "114",
        "short_name": "114",
        "types": ["street_number"]
    }, {
        "long_name": "East Main Street",
        "short_name": "E Main St",
        "types": ["route"]
    }, {
        "long_name": "Meriden",
        "short_name": "Meriden",
        "types": ["locality", "political"]
    }, {
        "long_name": "New Haven County",
        "short_name": "New Haven County",
        "types": ["administrative_area_level_2", "political"]
    }, {
        "long_name": "Connecticut",
        "short_name": "CT",
        "types": ["administrative_area_level_1", "political"]
    }, {
        "long_name": "United States",
        "short_name": "US",
        "types": ["country", "political"]
    }, {
        "long_name": "06450",
        "short_name": "06450",
        "types": ["postal_code"]
    }, {
        "long_name": "5604",
        "short_name": "5604",
        "types": ["postal_code_suffix"]
    }],
    "formatted_address": "114 E Main St, Meriden, CT 06450, USA",
    "geometry": {
        "bounds": {
            "northeast": {
                "lat": 41.5372715,
                "lng": -72.7986341
            },
            "southwest": {
                "lat": 41.53715400000001,
                "lng": -72.79882959999999
            }
        },
        "location": {
            "lat": 41.5372277,
            "lng": -72.7987168
        },
        "location_type": "ROOFTOP",
        "viewport": {
            "northeast": {
                "lat": 41.5385617302915,
                "lng": -72.7973828697085
            },
            "southwest": {
                "lat": 41.53586376970851,
                "lng": -72.8000808302915
            }
        }
    },
    "place_id": "ChIJXfUpfyHK54kR27-WtOsMLiQ",
    "types": ["premise"],
    "name": "COMMUNITY HEALTH CENTER OF CLINTON"
}, {
    "address_components": [{
        "long_name": "180",
        "short_name": "180",
        "types": ["street_number"]
    }, {
        "long_name": "Fairfield Avenue",
        "short_name": "Fairfield Ave",
        "types": ["route"]
    }, {
        "long_name": "Downtown",
        "short_name": "Downtown",
        "types": ["neighborhood", "political"]
    }, {
        "long_name": "Bridgeport",
        "short_name": "Bridgeport",
        "types": ["locality", "political"]
    }, {
        "long_name": "Fairfield County",
        "short_name": "Fairfield County",
        "types": ["administrative_area_level_2", "political"]
    }, {
        "long_name": "Connecticut",
        "short_name": "CT",
        "types": ["administrative_area_level_1", "political"]
    }, {
        "long_name": "United States",
        "short_name": "US",
        "types": ["country", "political"]
    }, {
        "long_name": "06604",
        "short_name": "06604",
        "types": ["postal_code"]
    }],
    "formatted_address": "180 Fairfield Ave, Bridgeport, CT 06604, USA",
    "geometry": {
        "bounds": {
            "northeast": {
                "lat": 41.17951480000001,
                "lng": -73.190456
            },
            "southwest": {
                "lat": 41.1790565,
                "lng": -73.1908402
            }
        },
        "location": {
            "lat": 41.1792801,
            "lng": -73.1905967
        },
        "location_type": "ROOFTOP",
        "viewport": {
            "northeast": {
                "lat": 41.1806346302915,
                "lng": -73.18929911970848
            },
            "southwest": {
                "lat": 41.17793666970851,
                "lng": -73.1919970802915
            }
        }
    },
    "place_id": "ChIJZ1D1i3AO6IkRNAMjnwKa_oo",
    "types": ["premise"],
    "name": "CHILD AND FAMILY GUIDANCE CENTER, INC."
}, {
    "address_components": [{
        "long_name": "14",
        "short_name": "14",
        "types": ["street_number"]
    }, {
        "long_name": "Sycamore Way",
        "short_name": "Sycamore Way",
        "types": ["route"]
    }, {
        "long_name": "Mercerville-Hamilton Square",
        "short_name": "Mercerville-Hamilton Square",
        "types": ["neighborhood", "political"]
    }, {
        "long_name": "Hamilton Township",
        "short_name": "Hamilton Township",
        "types": ["locality", "political"]
    }, {
        "long_name": "Mercer County",
        "short_name": "Mercer County",
        "types": ["administrative_area_level_2", "political"]
    }, {
        "long_name": "New Jersey",
        "short_name": "NJ",
        "types": ["administrative_area_level_1", "political"]
    }, {
        "long_name": "United States",
        "short_name": "US",
        "types": ["country", "political"]
    }, {
        "long_name": "08690",
        "short_name": "08690",
        "types": ["postal_code"]
    }, {
        "long_name": "2115",
        "short_name": "2115",
        "types": ["postal_code_suffix"]
    }],
    "formatted_address": "14 Sycamore Way, Hamilton Township, NJ 08690, USA",
    "geometry": {
        "bounds": {
            "northeast": {
                "lat": 40.2219448,
                "lng": -74.6523571
            },
            "southwest": {
                "lat": 40.2218248,
                "lng": -74.652571
            }
        },
        "location": {
            "lat": 40.2218945,
            "lng": -74.652463
        },
        "location_type": "ROOFTOP",
        "viewport": {
            "northeast": {
                "lat": 40.22323378029149,
                "lng": -74.65111506970851
            },
            "southwest": {
                "lat": 40.22053581970849,
                "lng": -74.65381303029152
            }
        }
    },
    "place_id": "ChIJCyp3qBpfwYkRR6Fa7Hp0dJo",
    "types": ["premise"],
    "name": "BHCARE, INC.-SHORELINE CLINIC"
}, {
    "address_components": [{
        "long_name": "158",
        "short_name": "158",
        "types": ["street_number"]
    }, {
        "long_name": "Flanders Road",
        "short_name": "Flanders Rd",
        "types": ["route"]
    }, {
        "long_name": "Niantic",
        "short_name": "Niantic",
        "types": ["neighborhood", "political"]
    }, {
        "long_name": "East Lyme",
        "short_name": "East Lyme",
        "types": ["locality", "political"]
    }, {
        "long_name": "New London County",
        "short_name": "New London County",
        "types": ["administrative_area_level_2", "political"]
    }, {
        "long_name": "Connecticut",
        "short_name": "CT",
        "types": ["administrative_area_level_1", "political"]
    }, {
        "long_name": "United States",
        "short_name": "US",
        "types": ["country", "political"]
    }, {
        "long_name": "06357",
        "short_name": "06357",
        "types": ["postal_code"]
    }, {
        "long_name": "1201",
        "short_name": "1201",
        "types": ["postal_code_suffix"]
    }],
    "formatted_address": "158 Flanders Rd, Niantic, CT 06357, USA",
    "geometry": {
        "bounds": {
            "northeast": {
                "lat": 41.3487522,
                "lng": -72.2103759
            },
            "southwest": {
                "lat": 41.3485373,
                "lng": -72.21059480000001
            }
        },
        "location": {
            "lat": 41.34863170000001,
            "lng": -72.2104927
        },
        "location_type": "ROOFTOP",
        "viewport": {
            "northeast": {
                "lat": 41.3499937302915,
                "lng": -72.2091363697085
            },
            "southwest": {
                "lat": 41.3472957697085,
                "lng": -72.21183433029152
            }
        }
    },
    "place_id": "ChIJURN3WuAQ5okRvLCDVOQU_OE",
    "types": ["premise"],
    "name": "ANGELUS HOUSE"
}, {
    "address_components": [{
        "long_name": "1549",
        "short_name": "1549",
        "types": ["street_number"]
    }, {
        "long_name": "Fairfield Avenue",
        "short_name": "Fairfield Ave",
        "types": ["route"]
    }, {
        "long_name": "West End - West Side",
        "short_name": "West End - West Side",
        "types": ["neighborhood", "political"]
    }, {
        "long_name": "Bridgeport",
        "short_name": "Bridgeport",
        "types": ["locality", "political"]
    }, {
        "long_name": "Fairfield County",
        "short_name": "Fairfield County",
        "types": ["administrative_area_level_2", "political"]
    }, {
        "long_name": "Connecticut",
        "short_name": "CT",
        "types": ["administrative_area_level_1", "political"]
    }, {
        "long_name": "United States",
        "short_name": "US",
        "types": ["country", "political"]
    }, {
        "long_name": "06605",
        "short_name": "06605",
        "types": ["postal_code"]
    }, {
        "long_name": "1935",
        "short_name": "1935",
        "types": ["postal_code_suffix"]
    }],
    "formatted_address": "1549 Fairfield Ave, Bridgeport, CT 06605, USA",
    "geometry": {
        "bounds": {
            "northeast": {
                "lat": 41.1712742,
                "lng": -73.2118045
            },
            "southwest": {
                "lat": 41.1710611,
                "lng": -73.2120783
            }
        },
        "location": {
            "lat": 41.1711911,
            "lng": -73.2119668
        },
        "location_type": "ROOFTOP",
        "viewport": {
            "northeast": {
                "lat": 41.1725166302915,
                "lng": -73.2105924197085
            },
            "southwest": {
                "lat": 41.1698186697085,
                "lng": -73.21329038029151
            }
        }
    },
    "place_id": "ChIJGV0PKjkO6IkRlZElhImzQs4",
    "types": ["premise"],
    "name": "RECOVERY EMPOWERMENT COUNSELING CENTER"
}, {
    "address_components": [{
        "long_name": "690",
        "short_name": "690",
        "types": ["street_number"]
    }, {
        "long_name": "Arctic Street",
        "short_name": "Arctic St",
        "types": ["route"]
    }, {
        "long_name": "East Side",
        "short_name": "East Side",
        "types": ["neighborhood", "political"]
    }, {
        "long_name": "Bridgeport",
        "short_name": "Bridgeport",
        "types": ["locality", "political"]
    }, {
        "long_name": "Fairfield County",
        "short_name": "Fairfield County",
        "types": ["administrative_area_level_2", "political"]
    }, {
        "long_name": "Connecticut",
        "short_name": "CT",
        "types": ["administrative_area_level_1", "political"]
    }, {
        "long_name": "United States",
        "short_name": "US",
        "types": ["country", "political"]
    }, {
        "long_name": "06608",
        "short_name": "06608",
        "types": ["postal_code"]
    }],
    "formatted_address": "690 Arctic St, Bridgeport, CT 06608, USA",
    "geometry": {
        "bounds": {
            "northeast": {
                "lat": 41.1889461,
                "lng": -73.176334
            },
            "southwest": {
                "lat": 41.1887292,
                "lng": -73.1766376
            }
        },
        "location": {
            "lat": 41.1888588,
            "lng": -73.1764931
        },
        "location_type": "ROOFTOP",
        "viewport": {
            "northeast": {
                "lat": 41.1901866302915,
                "lng": -73.1751368197085
            },
            "southwest": {
                "lat": 41.1874886697085,
                "lng": -73.1778347802915
            }
        }
    },
    "place_id": "ChIJtSbSXisM6IkR9lzCftbdAms",
    "types": ["premise"],
    "name": "CASA EUGENIO MARIA DE HOSTOS"
}, {
    "address_components": [{
        "long_name": "60",
        "short_name": "60",
        "types": ["street_number"]
    }, {
        "long_name": "Beaver Brook Road",
        "short_name": "Beaver Brook Rd",
        "types": ["route"]
    }, {
        "long_name": "Narrowsburg",
        "short_name": "Narrowsburg",
        "types": ["locality", "political"]
    }, {
        "long_name": "Highland",
        "short_name": "Highland",
        "types": ["administrative_area_level_3", "political"]
    }, {
        "long_name": "Sullivan County",
        "short_name": "Sullivan County",
        "types": ["administrative_area_level_2", "political"]
    }, {
        "long_name": "New York",
        "short_name": "NY",
        "types": ["administrative_area_level_1", "political"]
    }, {
        "long_name": "United States",
        "short_name": "US",
        "types": ["country", "political"]
    }, {
        "long_name": "12764",
        "short_name": "12764",
        "types": ["postal_code"]
    }],
    "formatted_address": "60 Beaver Brook Rd, Narrowsburg, NY 12764, USA",
    "geometry": {
        "location": {
            "lat": 41.52781299999999,
            "lng": -74.93916999999999
        },
        "location_type": "ROOFTOP",
        "viewport": {
            "northeast": {
                "lat": 41.5291619802915,
                "lng": -74.9378210197085
            },
            "southwest": {
                "lat": 41.5264640197085,
                "lng": -74.9405189802915
            }
        }
    },
    "place_id": "ChIJLTAEMhJVw4kRanXTcRUiKfI",
    "plus_code": {
        "compound_code": "G3H6+48 Yulan, Highland, NY, United States",
        "global_code": "87H7G3H6+48"
    },
    "types": ["street_address"],
    "name": "CONNECTICUT COUNSELING CENTERS INC."
}, {
    "address_components": [{
        "long_name": "45",
        "short_name": "45",
        "types": ["street_number"]
    }, {
        "long_name": "West Main Street",
        "short_name": "W Main St",
        "types": ["route"]
    }, {
        "long_name": "Upton",
        "short_name": "Upton",
        "types": ["locality", "political"]
    }, {
        "long_name": "Worcester County",
        "short_name": "Worcester County",
        "types": ["administrative_area_level_2", "political"]
    }, {
        "long_name": "Massachusetts",
        "short_name": "MA",
        "types": ["administrative_area_level_1", "political"]
    }, {
        "long_name": "United States",
        "short_name": "US",
        "types": ["country", "political"]
    }, {
        "long_name": "01568",
        "short_name": "01568",
        "types": ["postal_code"]
    }],
    "formatted_address": "45 W Main St, Upton, MA 01568, USA",
    "geometry": {
        "bounds": {
            "northeast": {
                "lat": 42.1773079,
                "lng": -71.6364976
            },
            "southwest": {
                "lat": 42.1770927,
                "lng": -71.6367254
            }
        },
        "location": {
            "lat": 42.17720670000001,
            "lng": -71.6366264
        },
        "location_type": "ROOFTOP",
        "viewport": {
            "northeast": {
                "lat": 42.1785492802915,
                "lng": -71.63526251970849
            },
            "southwest": {
                "lat": 42.1758513197085,
                "lng": -71.6379604802915
            }
        }
    },
    "place_id": "ChIJBdz5RLEN5IkRsq6GUZokW7U",
    "types": ["premise"],
    "name": "BRIDGE FAMILY CENTER"
}, {
    "address_components": [{
        "long_name": "8",
        "short_name": "8",
        "types": ["street_number"]
    }, {
        "long_name": "Delay Street",
        "short_name": "Delay St",
        "types": ["route"]
    }, {
        "long_name": "Danbury",
        "short_name": "Danbury",
        "types": ["locality", "political"]
    }, {
        "long_name": "Fairfield County",
        "short_name": "Fairfield County",
        "types": ["administrative_area_level_2", "political"]
    }, {
        "long_name": "Connecticut",
        "short_name": "CT",
        "types": ["administrative_area_level_1", "political"]
    }, {
        "long_name": "United States",
        "short_name": "US",
        "types": ["country", "political"]
    }, {
        "long_name": "06810",
        "short_name": "06810",
        "types": ["postal_code"]
    }],
    "formatted_address": "8 Delay St, Danbury, CT 06810, USA",
    "geometry": {
        "location": {
            "lat": 41.3950209,
            "lng": -73.45139449999999
        },
        "location_type": "ROOFTOP",
        "viewport": {
            "northeast": {
                "lat": 41.39636988029149,
                "lng": -73.45004551970848
            },
            "southwest": {
                "lat": 41.3936719197085,
                "lng": -73.4527434802915
            }
        }
    },
    "place_id": "ChIJWTOe2W__54kRIqXpq2CfEKA",
    "plus_code": {
        "compound_code": "9GWX+2C Danbury, Connecticut, United States",
        "global_code": "87H89GWX+2C"
    },
    "types": ["street_address"],
    "name": "COMMUNITY HEALTH CENTER OF DANBURY"
}, {
    "address_components": [{
        "long_name": "968",
        "short_name": "968",
        "types": ["street_number"]
    }, {
        "long_name": "Fairfield Avenue",
        "short_name": "Fairfield Ave",
        "types": ["route"]
    }, {
        "long_name": "West End - West Side",
        "short_name": "West End - West Side",
        "types": ["neighborhood", "political"]
    }, {
        "long_name": "Bridgeport",
        "short_name": "Bridgeport",
        "types": ["locality", "political"]
    }, {
        "long_name": "Fairfield County",
        "short_name": "Fairfield County",
        "types": ["administrative_area_level_2", "political"]
    }, {
        "long_name": "Connecticut",
        "short_name": "CT",
        "types": ["administrative_area_level_1", "political"]
    }, {
        "long_name": "United States",
        "short_name": "US",
        "types": ["country", "political"]
    }, {
        "long_name": "06605",
        "short_name": "06605",
        "types": ["postal_code"]
    }],
    "formatted_address": "968 Fairfield Ave, Bridgeport, CT 06605, USA",
    "geometry": {
        "bounds": {
            "northeast": {
                "lat": 41.174788,
                "lng": -73.2029651
            },
            "southwest": {
                "lat": 41.1743872,
                "lng": -73.20324000000001
            }
        },
        "location": {
            "lat": 41.1745835,
            "lng": -73.20312899999999
        },
        "location_type": "ROOFTOP",
        "viewport": {
            "northeast": {
                "lat": 41.1759365802915,
                "lng": -73.20175356970852
            },
            "southwest": {
                "lat": 41.1732386197085,
                "lng": -73.20445153029152
            }
        }
    },
    "place_id": "ChIJi37e_moO6IkRGm9qd7meNy0",
    "types": ["premise"],
    "name": "SOUTHWEST COMMUNITY HEALTH CENTER INC."
}, {
    "address_components": [{
        "long_name": "140",
        "short_name": "140",
        "types": ["street_number"]
    }, {
        "long_name": "John Street",
        "short_name": "John St",
        "types": ["route"]
    }, {
        "long_name": "Manhattan",
        "short_name": "Manhattan",
        "types": ["political", "sublocality", "sublocality_level_1"]
    }, {
        "long_name": "New York",
        "short_name": "New York",
        "types": ["locality", "political"]
    }, {
        "long_name": "New York County",
        "short_name": "New York County",
        "types": ["administrative_area_level_2", "political"]
    }, {
        "long_name": "New York",
        "short_name": "NY",
        "types": ["administrative_area_level_1", "political"]
    }, {
        "long_name": "United States",
        "short_name": "US",
        "types": ["country", "political"]
    }, {
        "long_name": "10038",
        "short_name": "10038",
        "types": ["postal_code"]
    }],
    "formatted_address": "140 John St, New York, NY 10038, USA",
    "geometry": {
        "location": {
            "lat": 40.7067472,
            "lng": -74.00562339999999
        },
        "location_type": "RANGE_INTERPOLATED",
        "viewport": {
            "northeast": {
                "lat": 40.70809618029149,
                "lng": -74.00427441970848
            },
            "southwest": {
                "lat": 40.7053982197085,
                "lng": -74.0069723802915
            }
        }
    },
    "place_id": "EiQxNDAgSm9obiBTdCwgTmV3IFlvcmssIE5ZIDEwMDM4LCBVU0EiGxIZChQKEglXR69tPVrCiRHYJLiPSMJEWBCMAQ",
    "types": ["street_address"],
    "name": "MCCA/BRIDGEPORT"
}, {
    "address_components": [{
        "long_name": "425",
        "short_name": "425",
        "types": ["street_number"]
    }, {
        "long_name": "Grant Street",
        "short_name": "Grant St",
        "types": ["route"]
    }, {
        "long_name": "Beaver Dam",
        "short_name": "Beaver Dam",
        "types": ["locality", "political"]
    }, {
        "long_name": "Dodge County",
        "short_name": "Dodge County",
        "types": ["administrative_area_level_2", "political"]
    }, {
        "long_name": "Wisconsin",
        "short_name": "WI",
        "types": ["administrative_area_level_1", "political"]
    }, {
        "long_name": "United States",
        "short_name": "US",
        "types": ["country", "political"]
    }, {
        "long_name": "53916",
        "short_name": "53916",
        "types": ["postal_code"]
    }, {
        "long_name": "2409",
        "short_name": "2409",
        "types": ["postal_code_suffix"]
    }],
    "formatted_address": "425 Grant St, Beaver Dam, WI 53916, USA",
    "geometry": {
        "bounds": {
            "northeast": {
                "lat": 43.4518125,
                "lng": -88.8246533
            },
            "southwest": {
                "lat": 43.4516565,
                "lng": -88.8248416
            }
        },
        "location": {
            "lat": 43.4517461,
            "lng": -88.8247437
        },
        "location_type": "ROOFTOP",
        "viewport": {
            "northeast": {
                "lat": 43.4530834802915,
                "lng": -88.8233984697085
            },
            "southwest": {
                "lat": 43.4503855197085,
                "lng": -88.82609643029151
            }
        }
    },
    "place_id": "ChIJ-RlvDqefBogRFcyXmU0EFjg",
    "types": ["premise"],
    "name": "FIRST STEP"
}, {
    "address_components": [{
        "long_name": "24",
        "short_name": "24",
        "types": ["street_number"]
    }, {
        "long_name": "Shelter Rock Road",
        "short_name": "Shelter Rock Rd",
        "types": ["route"]
    }, {
        "long_name": "Danbury",
        "short_name": "Danbury",
        "types": ["locality", "political"]
    }, {
        "long_name": "Fairfield County",
        "short_name": "Fairfield County",
        "types": ["administrative_area_level_2", "political"]
    }, {
        "long_name": "Connecticut",
        "short_name": "CT",
        "types": ["administrative_area_level_1", "political"]
    }, {
        "long_name": "United States",
        "short_name": "US",
        "types": ["country", "political"]
    }, {
        "long_name": "06810",
        "short_name": "06810",
        "types": ["postal_code"]
    }],
    "formatted_address": "24 Shelter Rock Rd, Danbury, CT 06810, USA",
    "geometry": {
        "location": {
            "lat": 41.3895955,
            "lng": -73.4331069
        },
        "location_type": "RANGE_INTERPOLATED",
        "viewport": {
            "northeast": {
                "lat": 41.39094448029149,
                "lng": -73.43175791970849
            },
            "southwest": {
                "lat": 41.3882465197085,
                "lng": -73.43445588029151
            }
        }
    },
    "place_id": "EioyNCBTaGVsdGVyIFJvY2sgUmQsIERhbmJ1cnksIENUIDA2ODEwLCBVU0EiGhIYChQKEgmV0nZVDv_niRFQ6pjW1KKqqhAY",
    "types": ["street_address"],
    "name": "TRAVISANO NETWORK"
}, {
    "address_components": [{
        "long_name": "471",
        "short_name": "471",
        "types": ["street_number"]
    }, {
        "long_name": "Barnum Avenue",
        "short_name": "Barnum Ave",
        "types": ["route"]
    }, {
        "long_name": "East Side",
        "short_name": "East Side",
        "types": ["neighborhood", "political"]
    }, {
        "long_name": "Bridgeport",
        "short_name": "Bridgeport",
        "types": ["locality", "political"]
    }, {
        "long_name": "Fairfield County",
        "short_name": "Fairfield County",
        "types": ["administrative_area_level_2", "political"]
    }, {
        "long_name": "Connecticut",
        "short_name": "CT",
        "types": ["administrative_area_level_1", "political"]
    }, {
        "long_name": "United States",
        "short_name": "US",
        "types": ["country", "political"]
    }, {
        "long_name": "06608",
        "short_name": "06608",
        "types": ["postal_code"]
    }, {
        "long_name": "2409",
        "short_name": "2409",
        "types": ["postal_code_suffix"]
    }],
    "formatted_address": "471 Barnum Ave, Bridgeport, CT 06608, USA",
    "geometry": {
        "bounds": {
            "northeast": {
                "lat": 41.1875027,
                "lng": -73.1801189
            },
            "southwest": {
                "lat": 41.1871901,
                "lng": -73.1802817
            }
        },
        "location": {
            "lat": 41.1873483,
            "lng": -73.1801804
        },
        "location_type": "ROOFTOP",
        "viewport": {
            "northeast": {
                "lat": 41.18869538029149,
                "lng": -73.1788513197085
            },
            "southwest": {
                "lat": 41.18599741970849,
                "lng": -73.1815492802915
            }
        }
    },
    "place_id": "ChIJl3O6PdUN6IkRIlkHNF9tYgg",
    "types": ["premise"],
    "name": "OPTIMUS HEALTH CARE, INC."
}, {
    "address_components": [{
        "long_name": "1046",
        "short_name": "1046",
        "types": ["street_number"]
    }, {
        "long_name": "Fairfield Avenue",
        "short_name": "Fairfield Ave",
        "types": ["route"]
    }, {
        "long_name": "West End - West Side",
        "short_name": "West End - West Side",
        "types": ["neighborhood", "political"]
    }, {
        "long_name": "Bridgeport",
        "short_name": "Bridgeport",
        "types": ["locality", "political"]
    }, {
        "long_name": "Fairfield County",
        "short_name": "Fairfield County",
        "types": ["administrative_area_level_2", "political"]
    }, {
        "long_name": "Connecticut",
        "short_name": "CT",
        "types": ["administrative_area_level_1", "political"]
    }, {
        "long_name": "United States",
        "short_name": "US",
        "types": ["country", "political"]
    }, {
        "long_name": "06605",
        "short_name": "06605",
        "types": ["postal_code"]
    }],
    "formatted_address": "1046 Fairfield Ave, Bridgeport, CT 06605, USA",
    "geometry": {
        "bounds": {
            "northeast": {
                "lat": 41.1745922,
                "lng": -73.2043502
            },
            "southwest": {
                "lat": 41.1743498,
                "lng": -73.2046175
            }
        },
        "location": {
            "lat": 41.1744845,
            "lng": -73.2045152
        },
        "location_type": "ROOFTOP",
        "viewport": {
            "northeast": {
                "lat": 41.1758199802915,
                "lng": -73.20313486970849
            },
            "southwest": {
                "lat": 41.17312201970851,
                "lng": -73.2058328302915
            }
        }
    },
    "place_id": "ChIJwUykjWoO6IkRAuiphVYw-xM",
    "types": ["premise"],
    "name": "SOUTHWEST COMMUNITY HEALTH CENTER INC."
}, {
    "address_components": [{
        "long_name": "West 30th Street",
        "short_name": "W 30th St",
        "types": ["route"]
    }, {
        "long_name": "Manhattan",
        "short_name": "Manhattan",
        "types": ["political", "sublocality", "sublocality_level_1"]
    }, {
        "long_name": "New York",
        "short_name": "New York",
        "types": ["locality", "political"]
    }, {
        "long_name": "New York County",
        "short_name": "New York County",
        "types": ["administrative_area_level_2", "political"]
    }, {
        "long_name": "New York",
        "short_name": "NY",
        "types": ["administrative_area_level_1", "political"]
    }, {
        "long_name": "United States",
        "short_name": "US",
        "types": ["country", "political"]
    }],
    "formatted_address": "W 30th St, New York, NY, USA",
    "geometry": {
        "bounds": {
            "northeast": {
                "lat": 40.7548309,
                "lng": -73.9859414
            },
            "southwest": {
                "lat": 40.7456339,
                "lng": -74.0072436
            }
        },
        "location": {
            "lat": 40.7498827,
            "lng": -73.9957948
        },
        "location_type": "GEOMETRIC_CENTER",
        "viewport": {
            "northeast": {
                "lat": 40.7548309,
                "lng": -73.9859414
            },
            "southwest": {
                "lat": 40.7456339,
                "lng": -74.0072436
            }
        }
    },
    "place_id": "ChIJd4IHurFZwokRb8MN7oqVjqw",
    "types": ["route"],
    "name": "APEX COMMUNITY CARE, INC."
}, {
    "address_components": [{
        "long_name": "38",
        "short_name": "38",
        "types": ["street_number"]
    }, {
        "long_name": "Old Ridgebury Road",
        "short_name": "Old Ridgebury Rd",
        "types": ["route"]
    }, {
        "long_name": "Danbury",
        "short_name": "Danbury",
        "types": ["locality", "political"]
    }, {
        "long_name": "Fairfield County",
        "short_name": "Fairfield County",
        "types": ["administrative_area_level_2", "political"]
    }, {
        "long_name": "Connecticut",
        "short_name": "CT",
        "types": ["administrative_area_level_1", "political"]
    }, {
        "long_name": "United States",
        "short_name": "US",
        "types": ["country", "political"]
    }, {
        "long_name": "06810",
        "short_name": "06810",
        "types": ["postal_code"]
    }],
    "formatted_address": "38 Old Ridgebury Rd, Danbury, CT 06810, USA",
    "geometry": {
        "bounds": {
            "northeast": {
                "lat": 41.38585279999999,
                "lng": -73.514287
            },
            "southwest": {
                "lat": 41.3850749,
                "lng": -73.5147861
            }
        },
        "location": {
            "lat": 41.3855352,
            "lng": -73.5146398
        },
        "location_type": "ROOFTOP",
        "viewport": {
            "northeast": {
                "lat": 41.3868128302915,
                "lng": -73.51318756970849
            },
            "southwest": {
                "lat": 41.3841148697085,
                "lng": -73.5158855302915
            }
        }
    },
    "place_id": "ChIJbZKYJP1U3YkRjGg8g6ELyXk",
    "types": ["premise"],
    "name": "MCCA"
}, {
    "address_components": [{
        "long_name": "52",
        "short_name": "52",
        "types": ["street_number"]
    }, {
        "long_name": "Federal Road",
        "short_name": "Federal Rd",
        "types": ["route"]
    }, {
        "long_name": "Danbury",
        "short_name": "Danbury",
        "types": ["locality", "political"]
    }, {
        "long_name": "Fairfield County",
        "short_name": "Fairfield County",
        "types": ["administrative_area_level_2", "political"]
    }, {
        "long_name": "Connecticut",
        "short_name": "CT",
        "types": ["administrative_area_level_1", "political"]
    }, {
        "long_name": "United States",
        "short_name": "US",
        "types": ["country", "political"]
    }, {
        "long_name": "06810",
        "short_name": "06810",
        "types": ["postal_code"]
    }, {
        "long_name": "6162",
        "short_name": "6162",
        "types": ["postal_code_suffix"]
    }],
    "formatted_address": "52 Federal Rd, Danbury, CT 06810, USA",
    "geometry": {
        "location": {
            "lat": 41.4053643,
            "lng": -73.43008019999999
        },
        "location_type": "ROOFTOP",
        "viewport": {
            "northeast": {
                "lat": 41.4067132802915,
                "lng": -73.42873121970848
            },
            "southwest": {
                "lat": 41.4040153197085,
                "lng": -73.4314291802915
            }
        }
    },
    "place_id": "ChIJzQx4szz_54kRkSekaq5R-MA",
    "plus_code": {
        "compound_code": "CH49+4X Danbury, Connecticut, United States",
        "global_code": "87H8CH49+4X"
    },
    "types": ["street_address"],
    "name": "BLUE SKY BEHAVIORAL CLINIC"
}, {
    "address_components": [{
        "long_name": "1438",
        "short_name": "1438",
        "types": ["street_number"]
    }, {
        "long_name": "Park Avenue",
        "short_name": "Park Ave",
        "types": ["route"]
    }, {
        "long_name": "Woonsocket",
        "short_name": "Woonsocket",
        "types": ["locality", "political"]
    }, {
        "long_name": "Providence County",
        "short_name": "Providence County",
        "types": ["administrative_area_level_2", "political"]
    }, {
        "long_name": "Rhode Island",
        "short_name": "RI",
        "types": ["administrative_area_level_1", "political"]
    }, {
        "long_name": "United States",
        "short_name": "US",
        "types": ["country", "political"]
    }, {
        "long_name": "02895",
        "short_name": "02895",
        "types": ["postal_code"]
    }, {
        "long_name": "6557",
        "short_name": "6557",
        "types": ["postal_code_suffix"]
    }],
    "formatted_address": "1438 Park Ave, Woonsocket, RI 02895, USA",
    "geometry": {
        "location": {
            "lat": 41.9835126,
            "lng": -71.5141692
        },
        "location_type": "ROOFTOP",
        "viewport": {
            "northeast": {
                "lat": 41.98486158029149,
                "lng": -71.51282021970849
            },
            "southwest": {
                "lat": 41.98216361970849,
                "lng": -71.51551818029151
            }
        }
    },
    "place_id": "ChIJbz0vmGVq5IkRBW6L6szx6xE",
    "plus_code": {
        "compound_code": "XFMP+C8 Woonsocket, Rhode Island, United States",
        "global_code": "87HCXFMP+C8"
    },
    "types": ["dentist", "establishment", "health", "point_of_interest"],
    "name": "RECOVERY COUNSELING SERVICES"
}, {
    "address_components": [{
        "long_name": "46",
        "short_name": "46",
        "types": ["street_number"]
    }, {
        "long_name": "Albion Street",
        "short_name": "Albion St",
        "types": ["route"]
    }, {
        "long_name": "West End - West Side",
        "short_name": "West End - West Side",
        "types": ["neighborhood", "political"]
    }, {
        "long_name": "Bridgeport",
        "short_name": "Bridgeport",
        "types": ["locality", "political"]
    }, {
        "long_name": "Fairfield County",
        "short_name": "Fairfield County",
        "types": ["administrative_area_level_2", "political"]
    }, {
        "long_name": "Connecticut",
        "short_name": "CT",
        "types": ["administrative_area_level_1", "political"]
    }, {
        "long_name": "United States",
        "short_name": "US",
        "types": ["country", "political"]
    }, {
        "long_name": "06605",
        "short_name": "06605",
        "types": ["postal_code"]
    }, {
        "long_name": "2602",
        "short_name": "2602",
        "types": ["postal_code_suffix"]
    }],
    "formatted_address": "46 Albion St, Bridgeport, CT 06605, USA",
    "geometry": {
        "location": {
            "lat": 41.164439,
            "lng": -73.2167738
        },
        "location_type": "ROOFTOP",
        "viewport": {
            "northeast": {
                "lat": 41.1657879802915,
                "lng": -73.21542481970849
            },
            "southwest": {
                "lat": 41.16309001970851,
                "lng": -73.21812278029151
            }
        }
    },
    "place_id": "ChIJ2Sl4TSUO6IkREKFD4FMXXTo",
    "plus_code": {
        "compound_code": "5Q7M+Q7 Bridgeport, Connecticut, United States",
        "global_code": "87H85Q7M+Q7"
    },
    "types": ["street_address"],
    "name": "SOUTHWEST COMMUNITY HEALTH CENTER, INC."
}, {
    "address_components": [{
        "long_name": "480",
        "short_name": "480",
        "types": ["street_number"]
    }, {
        "long_name": "Bond Street",
        "short_name": "Bond St",
        "types": ["route"]
    }, {
        "long_name": "North Bridgeport",
        "short_name": "North Bridgeport",
        "types": ["neighborhood", "political"]
    }, {
        "long_name": "Bridgeport",
        "short_name": "Bridgeport",
        "types": ["locality", "political"]
    }, {
        "long_name": "Fairfield County",
        "short_name": "Fairfield County",
        "types": ["administrative_area_level_2", "political"]
    }, {
        "long_name": "Connecticut",
        "short_name": "CT",
        "types": ["administrative_area_level_1", "political"]
    }, {
        "long_name": "United States",
        "short_name": "US",
        "types": ["country", "political"]
    }, {
        "long_name": "06610",
        "short_name": "06610",
        "types": ["postal_code"]
    }, {
        "long_name": "2205",
        "short_name": "2205",
        "types": ["postal_code_suffix"]
    }],
    "formatted_address": "480 Bond St, Bridgeport, CT 06610, USA",
    "geometry": {
        "bounds": {
            "northeast": {
                "lat": 41.1999523,
                "lng": -73.1669192
            },
            "southwest": {
                "lat": 41.1998081,
                "lng": -73.1670571
            }
        },
        "location": {
            "lat": 41.1998697,
            "lng": -73.1670141
        },
        "location_type": "ROOFTOP",
        "viewport": {
            "northeast": {
                "lat": 41.2012291802915,
                "lng": -73.1656391697085
            },
            "southwest": {
                "lat": 41.1985312197085,
                "lng": -73.1683371302915
            }
        }
    },
    "place_id": "ChIJD_QaojsM6IkR-HGyBSD5cKA",
    "types": ["premise"],
    "name": "JAY BROTHERS UNIFIED RESOURCE CENTER"
}, {
    "address_components": [{
        "long_name": "187",
        "short_name": "187",
        "types": ["street_number"]
    }, {
        "long_name": "South Canaan Road",
        "short_name": "S Canaan Rd",
        "types": ["route"]
    }, {
        "long_name": "Canaan",
        "short_name": "Canaan",
        "types": ["locality", "political"]
    }, {
        "long_name": "Litchfield County",
        "short_name": "Litchfield County",
        "types": ["administrative_area_level_2", "political"]
    }, {
        "long_name": "Connecticut",
        "short_name": "CT",
        "types": ["administrative_area_level_1", "political"]
    }, {
        "long_name": "United States",
        "short_name": "US",
        "types": ["country", "political"]
    }, {
        "long_name": "06018",
        "short_name": "06018",
        "types": ["postal_code"]
    }],
    "formatted_address": "187 S Canaan Rd, Canaan, CT 06018, USA",
    "geometry": {
        "location": {
            "lat": 42.0035077,
            "lng": -73.3275544
        },
        "location_type": "ROOFTOP",
        "viewport": {
            "northeast": {
                "lat": 42.0048566802915,
                "lng": -73.32620541970849
            },
            "southwest": {
                "lat": 42.0021587197085,
                "lng": -73.32890338029151
            }
        }
    },
    "place_id": "ChIJbzMT6At554kRZLuYVcbrg3I",
    "plus_code": {
        "compound_code": "2M3C+CX North Canaan, Connecticut, United States",
        "global_code": "87J82M3C+CX"
    },
    "types": ["establishment", "health", "point_of_interest"],
    "name": "MOUNTAINSIDE TREATMENT CENTER"
}, {
    "address_components": [{
        "long_name": "1862",
        "short_name": "1862",
        "types": ["street_number"]
    }, {
        "long_name": "State Street Extension",
        "short_name": "State St Ext",
        "types": ["route"]
    }, {
        "long_name": "West End - West Side",
        "short_name": "West End - West Side",
        "types": ["neighborhood", "political"]
    }, {
        "long_name": "Bridgeport",
        "short_name": "Bridgeport",
        "types": ["locality", "political"]
    }, {
        "long_name": "Fairfield County",
        "short_name": "Fairfield County",
        "types": ["administrative_area_level_2", "political"]
    }, {
        "long_name": "Connecticut",
        "short_name": "CT",
        "types": ["administrative_area_level_1", "political"]
    }, {
        "long_name": "United States",
        "short_name": "US",
        "types": ["country", "political"]
    }, {
        "long_name": "06605",
        "short_name": "06605",
        "types": ["postal_code"]
    }, {
        "long_name": "2230",
        "short_name": "2230",
        "types": ["postal_code_suffix"]
    }],
    "formatted_address": "1862 State St Ext, Bridgeport, CT 06605, USA",
    "geometry": {
        "bounds": {
            "northeast": {
                "lat": 41.168323,
                "lng": -73.2177363
            },
            "southwest": {
                "lat": 41.1681894,
                "lng": -73.21814909999999
            }
        },
        "location": {
            "lat": 41.1682569,
            "lng": -73.2179489
        },
        "location_type": "ROOFTOP",
        "viewport": {
            "northeast": {
                "lat": 41.1696051802915,
                "lng": -73.21659371970848
            },
            "southwest": {
                "lat": 41.1669072197085,
                "lng": -73.21929168029149
            }
        }
    },
    "place_id": "ChIJvYormTAO6IkRyoL48g0iJA8",
    "types": ["premise"],
    "name": "KINSELLA TREATMENT CENTER"
}, {
    "address_components": [{
        "long_name": "1098",
        "short_name": "1098",
        "types": ["street_number"]
    }, {
        "long_name": "Farmington Avenue",
        "short_name": "Farmington Ave",
        "types": ["route"]
    }, {
        "long_name": "Bristol",
        "short_name": "Bristol",
        "types": ["locality", "political"]
    }, {
        "long_name": "Hartford County",
        "short_name": "Hartford County",
        "types": ["administrative_area_level_2", "political"]
    }, {
        "long_name": "Connecticut",
        "short_name": "CT",
        "types": ["administrative_area_level_1", "political"]
    }, {
        "long_name": "United States",
        "short_name": "US",
        "types": ["country", "political"]
    }, {
        "long_name": "06010",
        "short_name": "06010",
        "types": ["postal_code"]
    }, {
        "long_name": "4705",
        "short_name": "4705",
        "types": ["postal_code_suffix"]
    }],
    "formatted_address": "1098 Farmington Ave, Bristol, CT 06010, USA",
    "geometry": {
        "bounds": {
            "northeast": {
                "lat": 41.6960233,
                "lng": -72.9069258
            },
            "southwest": {
                "lat": 41.6958598,
                "lng": -72.9072079
            }
        },
        "location": {
            "lat": 41.695962,
            "lng": -72.9070744
        },
        "location_type": "ROOFTOP",
        "viewport": {
            "northeast": {
                "lat": 41.6972905302915,
                "lng": -72.9057178697085
            },
            "southwest": {
                "lat": 41.6945925697085,
                "lng": -72.9084158302915
            }
        }
    },
    "place_id": "ChIJY6WzjYa654kRum8RYNHyZUc",
    "types": ["premise"],
    "name": "HARTFORD DISPENSARY-BRISTOL CLINIC"
}, {
    "address_components": [{
        "long_name": "64",
        "short_name": "64",
        "types": ["street_number"]
    }, {
        "long_name": "Double Hill Road",
        "short_name": "Double Hill Rd",
        "types": ["route"]
    }, {
        "long_name": "Bethlehem",
        "short_name": "Bethlehem",
        "types": ["locality", "political"]
    }, {
        "long_name": "Litchfield County",
        "short_name": "Litchfield County",
        "types": ["administrative_area_level_2", "political"]
    }, {
        "long_name": "Connecticut",
        "short_name": "CT",
        "types": ["administrative_area_level_1", "political"]
    }, {
        "long_name": "United States",
        "short_name": "US",
        "types": ["country", "political"]
    }, {
        "long_name": "06751",
        "short_name": "06751",
        "types": ["postal_code"]
    }],
    "formatted_address": "64 Double Hill Rd, Bethlehem, CT 06751, USA",
    "geometry": {
        "location": {
            "lat": 41.6506288,
            "lng": -73.2254985
        },
        "location_type": "ROOFTOP",
        "viewport": {
            "northeast": {
                "lat": 41.6519777802915,
                "lng": -73.22414951970849
            },
            "southwest": {
                "lat": 41.6492798197085,
                "lng": -73.22684748029151
            }
        }
    },
    "place_id": "ChIJ43bU9xyT54kR5NdyANqdzyY",
    "plus_code": {
        "compound_code": "MQ2F+7R Bethlehem, Connecticut, United States",
        "global_code": "87H8MQ2F+7R"
    },
    "types": ["street_address"],
    "name": "NEWPORT ACADEMY"
}, {
    "address_components": [{
        "long_name": "680",
        "short_name": "680",
        "types": ["street_number"]
    }, {
        "long_name": "South Main Street",
        "short_name": "S Main St",
        "types": ["route"]
    }, {
        "long_name": "Breckenridge",
        "short_name": "Breckenridge",
        "types": ["locality", "political"]
    }, {
        "long_name": "Summit County",
        "short_name": "Summit County",
        "types": ["administrative_area_level_2", "political"]
    }, {
        "long_name": "Colorado",
        "short_name": "CO",
        "types": ["administrative_area_level_1", "political"]
    }, {
        "long_name": "United States",
        "short_name": "US",
        "types": ["country", "political"]
    }, {
        "long_name": "80424",
        "short_name": "80424",
        "types": ["postal_code"]
    }],
    "formatted_address": "680 S Main St, Breckenridge, CO 80424, USA",
    "geometry": {
        "location": {
            "lat": 39.4749928,
            "lng": -106.0418388
        },
        "location_type": "ROOFTOP",
        "viewport": {
            "northeast": {
                "lat": 39.47634178029149,
                "lng": -106.0404898197085
            },
            "southwest": {
                "lat": 39.4736438197085,
                "lng": -106.0431877802915
            }
        }
    },
    "place_id": "ChIJZd-WAGH2aocR6ihVeEAHLZU",
    "plus_code": {
        "compound_code": "FXF5+X7 Breckenridge, Colorado, United States",
        "global_code": "85FMFXF5+X7"
    },
    "types": ["street_address"],
    "name": "RUSHFORD CENTER INC"
}, {
    "address_components": [{
        "long_name": "172",
        "short_name": "172",
        "types": ["street_number"]
    }, {
        "long_name": "Golden Hill Street",
        "short_name": "Golden Hill St",
        "types": ["route"]
    }, {
        "long_name": "Downtown",
        "short_name": "Downtown",
        "types": ["neighborhood", "political"]
    }, {
        "long_name": "Bridgeport",
        "short_name": "Bridgeport",
        "types": ["locality", "political"]
    }, {
        "long_name": "Fairfield County",
        "short_name": "Fairfield County",
        "types": ["administrative_area_level_2", "political"]
    }, {
        "long_name": "Connecticut",
        "short_name": "CT",
        "types": ["administrative_area_level_1", "political"]
    }, {
        "long_name": "United States",
        "short_name": "US",
        "types": ["country", "political"]
    }, {
        "long_name": "06604",
        "short_name": "06604",
        "types": ["postal_code"]
    }],
    "formatted_address": "172 Golden Hill St, Bridgeport, CT 06604, USA",
    "geometry": {
        "bounds": {
            "northeast": {
                "lat": 41.1807851,
                "lng": -73.1904926
            },
            "southwest": {
                "lat": 41.1802956,
                "lng": -73.1912905
            }
        },
        "location": {
            "lat": 41.1805129,
            "lng": -73.19091929999999
        },
        "location_type": "ROOFTOP",
        "viewport": {
            "northeast": {
                "lat": 41.1818893302915,
                "lng": -73.1895425697085
            },
            "southwest": {
                "lat": 41.1791913697085,
                "lng": -73.19224053029151
            }
        }
    },
    "place_id": "ChIJe95zfnoO6IkRHVUoXJG5v6E",
    "types": ["premise"],
    "name": "TREATMENT PATHWAY PROGRAM"
}, {
    "address_components": [{
        "long_name": "80",
        "short_name": "80",
        "types": ["street_number"]
    }, {
        "long_name": "West Street",
        "short_name": "West St",
        "types": ["route"]
    }, {
        "long_name": "Annapolis",
        "short_name": "Annapolis",
        "types": ["locality", "political"]
    }, {
        "long_name": "Annapolis",
        "short_name": "6",
        "types": ["administrative_area_level_3", "political"]
    }, {
        "long_name": "Anne Arundel County",
        "short_name": "Anne Arundel County",
        "types": ["administrative_area_level_2", "political"]
    }, {
        "long_name": "Maryland",
        "short_name": "MD",
        "types": ["administrative_area_level_1", "political"]
    }, {
        "long_name": "United States",
        "short_name": "US",
        "types": ["country", "political"]
    }, {
        "long_name": "21401",
        "short_name": "21401",
        "types": ["postal_code"]
    }, {
        "long_name": "2401",
        "short_name": "2401",
        "types": ["postal_code_suffix"]
    }],
    "formatted_address": "80 West St, Annapolis, MD 21401, USA",
    "geometry": {
        "location": {
            "lat": 38.9784409,
            "lng": -76.49624530000001
        },
        "location_type": "ROOFTOP",
        "viewport": {
            "northeast": {
                "lat": 38.97978988029149,
                "lng": -76.49489631970852
            },
            "southwest": {
                "lat": 38.97709191970849,
                "lng": -76.49759428029152
            }
        }
    },
    "place_id": "ChIJb1fTulD2t4kRqkP9bNnT5fo",
    "plus_code": {
        "compound_code": "XGH3+9G Annapolis, MD, United States",
        "global_code": "87C5XGH3+9G"
    },
    "types": ["establishment", "point_of_interest"],
    "name": "FAMILY & CHILDREN'S AID, INC."
}, {
    "address_components": [{
        "long_name": "10N",
        "short_name": "10N",
        "types": ["street_number"]
    }, {
        "long_name": "South Main Street",
        "short_name": "S Main St",
        "types": ["route"]
    }, {
        "long_name": "Downtown",
        "short_name": "Downtown",
        "types": ["neighborhood", "political"]
    }, {
        "long_name": "Akron",
        "short_name": "Akron",
        "types": ["locality", "political"]
    }, {
        "long_name": "Summit County",
        "short_name": "Summit County",
        "types": ["administrative_area_level_2", "political"]
    }, {
        "long_name": "Ohio",
        "short_name": "OH",
        "types": ["administrative_area_level_1", "political"]
    }, {
        "long_name": "United States",
        "short_name": "US",
        "types": ["country", "political"]
    }, {
        "long_name": "44308",
        "short_name": "44308",
        "types": ["postal_code"]
    }],
    "formatted_address": "10N S Main St, Akron, OH 44308, USA",
    "geometry": {
        "location": {
            "lat": 41.0861346,
            "lng": -81.51770309999999
        },
        "location_type": "ROOFTOP",
        "viewport": {
            "northeast": {
                "lat": 41.0874835802915,
                "lng": -81.51635411970848
            },
            "southwest": {
                "lat": 41.08478561970851,
                "lng": -81.5190520802915
            }
        }
    },
    "place_id": "ChIJXfezWSrWMIgRJWWkdww8gtc",
    "plus_code": {
        "compound_code": "3FPJ+FW Akron, Ohio, United States",
        "global_code": "86HW3FPJ+FW"
    },
    "types": ["establishment", "parking", "point_of_interest"],
    "name": "WHEELER CLINIC: BRISTOL ADULT OUTPATIENT SERVICES"
}, {
    "address_components": [{
        "long_name": "13",
        "short_name": "13",
        "types": ["street_number"]
    }, {
        "long_name": "Water Street",
        "short_name": "Water St",
        "types": ["route"]
    }, {
        "long_name": "Charleston",
        "short_name": "Charleston",
        "types": ["locality", "political"]
    }, {
        "long_name": "Charleston County",
        "short_name": "Charleston County",
        "types": ["administrative_area_level_2", "political"]
    }, {
        "long_name": "South Carolina",
        "short_name": "SC",
        "types": ["administrative_area_level_1", "political"]
    }, {
        "long_name": "United States",
        "short_name": "US",
        "types": ["country", "political"]
    }, {
        "long_name": "29401",
        "short_name": "29401",
        "types": ["postal_code"]
    }, {
        "long_name": "2725",
        "short_name": "2725",
        "types": ["postal_code_suffix"]
    }],
    "formatted_address": "13 Water St, Charleston, SC 29401, USA",
    "geometry": {
        "bounds": {
            "northeast": {
                "lat": 32.7732299,
                "lng": -79.9296975
            },
            "southwest": {
                "lat": 32.7730407,
                "lng": -79.9298127
            }
        },
        "location": {
            "lat": 32.7731347,
            "lng": -79.9297528
        },
        "location_type": "ROOFTOP",
        "viewport": {
            "northeast": {
                "lat": 32.7744842802915,
                "lng": -79.9284061197085
            },
            "southwest": {
                "lat": 32.7717863197085,
                "lng": -79.9311040802915
            }
        }
    },
    "place_id": "ChIJwYtkRQV6_ogRFAmcnt535zc",
    "types": ["premise"],
    "name": "BEHAVIORAL HEALTH CENTER"
}, {
    "address_components": [{
        "long_name": "1120",
        "short_name": "1120",
        "types": ["street_number"]
    }, {
        "long_name": "Main Street",
        "short_name": "Main St",
        "types": ["route"]
    }, {
        "long_name": "Downtown",
        "short_name": "Downtown",
        "types": ["neighborhood", "political"]
    }, {
        "long_name": "Bridgeport",
        "short_name": "Bridgeport",
        "types": ["locality", "political"]
    }, {
        "long_name": "Fairfield County",
        "short_name": "Fairfield County",
        "types": ["administrative_area_level_2", "political"]
    }, {
        "long_name": "Connecticut",
        "short_name": "CT",
        "types": ["administrative_area_level_1", "political"]
    }, {
        "long_name": "United States",
        "short_name": "US",
        "types": ["country", "political"]
    }, {
        "long_name": "06604",
        "short_name": "06604",
        "types": ["postal_code"]
    }, {
        "long_name": "4404",
        "short_name": "4404",
        "types": ["postal_code_suffix"]
    }],
    "formatted_address": "1120 Main St, Bridgeport, CT 06604, USA",
    "geometry": {
        "location": {
            "lat": 41.1798294,
            "lng": -73.18939209999999
        },
        "location_type": "ROOFTOP",
        "viewport": {
            "northeast": {
                "lat": 41.1811783802915,
                "lng": -73.18804311970848
            },
            "southwest": {
                "lat": 41.1784804197085,
                "lng": -73.19074108029149
            }
        }
    },
    "place_id": "ChIJ13dOn3AO6IkRJL4yfPacX_k",
    "plus_code": {
        "compound_code": "5RH6+W6 Bridgeport, Connecticut, United States",
        "global_code": "87H85RH6+W6"
    },
    "types": ["establishment", "point_of_interest"],
    "name": "CONNECTICUT RENAISSANCE INC."
}, {
    "address_components": [{
        "long_name": "75",
        "short_name": "75",
        "types": ["street_number"]
    }, {
        "long_name": "Washington Avenue",
        "short_name": "Washington Ave",
        "types": ["route"]
    }, {
        "long_name": "Hamden",
        "short_name": "Hamden",
        "types": ["locality", "political"]
    }, {
        "long_name": "New Haven County",
        "short_name": "New Haven County",
        "types": ["administrative_area_level_2", "political"]
    }, {
        "long_name": "Connecticut",
        "short_name": "CT",
        "types": ["administrative_area_level_1", "political"]
    }, {
        "long_name": "United States",
        "short_name": "US",
        "types": ["country", "political"]
    }, {
        "long_name": "06518",
        "short_name": "06518",
        "types": ["postal_code"]
    }],
    "formatted_address": "75 Washington Ave, Hamden, CT 06518, USA",
    "geometry": {
        "location": {
            "lat": 41.38439460000001,
            "lng": -72.897324
        },
        "location_type": "ROOFTOP",
        "viewport": {
            "northeast": {
                "lat": 41.38574358029151,
                "lng": -72.89597501970849
            },
            "southwest": {
                "lat": 41.38304561970851,
                "lng": -72.89867298029151
            }
        }
    },
    "place_id": "ChIJNYzENn_Q54kRm_MpzotCeKc",
    "plus_code": {
        "compound_code": "94M3+Q3 Hamden, Wallingford, CT, United States",
        "global_code": "87H994M3+Q3"
    },
    "types": ["street_address"],
    "name": "BRIDGEPORT BEHAVIORAL HEALTH NETWORK"
}, {
    "address_components": [{
        "long_name": "64",
        "short_name": "64",
        "types": ["street_number"]
    }, {
        "long_name": "Black Rock Avenue",
        "short_name": "Black Rock Ave",
        "types": ["route"]
    }, {
        "long_name": "West End - West Side",
        "short_name": "West End - West Side",
        "types": ["neighborhood", "political"]
    }, {
        "long_name": "Bridgeport",
        "short_name": "Bridgeport",
        "types": ["locality", "political"]
    }, {
        "long_name": "Fairfield County",
        "short_name": "Fairfield County",
        "types": ["administrative_area_level_2", "political"]
    }, {
        "long_name": "Connecticut",
        "short_name": "CT",
        "types": ["administrative_area_level_1", "political"]
    }, {
        "long_name": "United States",
        "short_name": "US",
        "types": ["country", "political"]
    }, {
        "long_name": "06605",
        "short_name": "06605",
        "types": ["postal_code"]
    }],
    "formatted_address": "64 Black Rock Ave, Bridgeport, CT 06605, USA",
    "geometry": {
        "bounds": {
            "northeast": {
                "lat": 41.1715342,
                "lng": -73.1971228
            },
            "southwest": {
                "lat": 41.1711256,
                "lng": -73.1977236
            }
        },
        "location": {
            "lat": 41.1713618,
            "lng": -73.1974188
        },
        "location_type": "ROOFTOP",
        "viewport": {
            "northeast": {
                "lat": 41.17267888029149,
                "lng": -73.1960742197085
            },
            "southwest": {
                "lat": 41.1699809197085,
                "lng": -73.19877218029151
            }
        }
    },
    "place_id": "ChIJn274LBMO6IkRdV6-pSVqbGE",
    "types": ["premise"],
    "name": "PARK CITY PRIMARY CARE CENTER"
}, {
    "address_components": [{
        "long_name": "West 85th Street",
        "short_name": "W 85th St",
        "types": ["route"]
    }, {
        "long_name": "Manhattan",
        "short_name": "Manhattan",
        "types": ["political", "sublocality", "sublocality_level_1"]
    }, {
        "long_name": "New York",
        "short_name": "New York",
        "types": ["locality", "political"]
    }, {
        "long_name": "New York County",
        "short_name": "New York County",
        "types": ["administrative_area_level_2", "political"]
    }, {
        "long_name": "New York",
        "short_name": "NY",
        "types": ["administrative_area_level_1", "political"]
    }, {
        "long_name": "United States",
        "short_name": "US",
        "types": ["country", "political"]
    }, {
        "long_name": "10024",
        "short_name": "10024",
        "types": ["postal_code"]
    }],
    "formatted_address": "W 85th St, New York, NY 10024, USA",
    "geometry": {
        "bounds": {
            "northeast": {
                "lat": 40.7893541,
                "lng": -73.96831019999999
            },
            "southwest": {
                "lat": 40.7824385,
                "lng": -73.98089089999999
            }
        },
        "location": {
            "lat": 40.7869996,
            "lng": -73.9755309
        },
        "location_type": "GEOMETRIC_CENTER",
        "viewport": {
            "northeast": {
                "lat": 40.7893541,
                "lng": -73.96831019999999
            },
            "southwest": {
                "lat": 40.7824385,
                "lng": -73.98089089999999
            }
        }
    },
    "place_id": "ChIJhXKRsoVYwokRwXovlgYHfKk",
    "types": ["route"],
    "name": "APEX COMMUNITY CARE, INC."
}, {
    "address_components": [{
        "long_name": "1106",
        "short_name": "1106",
        "types": ["street_number"]
    }, {
        "long_name": "North Avenue",
        "short_name": "North Ave",
        "types": ["route"]
    }, {
        "long_name": "Brooklawn - St. Vincent",
        "short_name": "Brooklawn - St. Vincent",
        "types": ["neighborhood", "political"]
    }, {
        "long_name": "Bridgeport",
        "short_name": "Bridgeport",
        "types": ["locality", "political"]
    }, {
        "long_name": "Fairfield County",
        "short_name": "Fairfield County",
        "types": ["administrative_area_level_2", "political"]
    }, {
        "long_name": "Connecticut",
        "short_name": "CT",
        "types": ["administrative_area_level_1", "political"]
    }, {
        "long_name": "United States",
        "short_name": "US",
        "types": ["country", "political"]
    }, {
        "long_name": "06606",
        "short_name": "06606",
        "types": ["postal_code"]
    }],
    "formatted_address": "1106 North Ave, Bridgeport, CT 06606, USA",
    "geometry": {
        "bounds": {
            "northeast": {
                "lat": 41.1910868,
                "lng": -73.20033149999999
            },
            "southwest": {
                "lat": 41.18999489999999,
                "lng": -73.2023839
            }
        },
        "location": {
            "lat": 41.19062,
            "lng": -73.2010126
        },
        "location_type": "ROOFTOP",
        "viewport": {
            "northeast": {
                "lat": 41.1918898302915,
                "lng": -73.20000871970849
            },
            "southwest": {
                "lat": 41.1891918697085,
                "lng": -73.2027066802915
            }
        }
    },
    "place_id": "ChIJM4iE7mEO6IkRmkPbQ_fbZMM",
    "types": ["premise"],
    "name": "RECOVERY NETWORK OF PROGRAMS, INC."
}, {
    "address_components": [{
        "long_name": "435",
        "short_name": "435",
        "types": ["street_number"]
    }, {
        "long_name": "East Main Street",
        "short_name": "E Main St",
        "types": ["route"]
    }, {
        "long_name": "Owego",
        "short_name": "Owego",
        "types": ["locality", "political"]
    }, {
        "long_name": "Owego",
        "short_name": "Owego",
        "types": ["administrative_area_level_3", "political"]
    }, {
        "long_name": "Tioga County",
        "short_name": "Tioga County",
        "types": ["administrative_area_level_2", "political"]
    }, {
        "long_name": "New York",
        "short_name": "NY",
        "types": ["administrative_area_level_1", "political"]
    }, {
        "long_name": "United States",
        "short_name": "US",
        "types": ["country", "political"]
    }, {
        "long_name": "13827",
        "short_name": "13827",
        "types": ["postal_code"]
    }, {
        "long_name": "1230",
        "short_name": "1230",
        "types": ["postal_code_suffix"]
    }],
    "formatted_address": "435 E Main St, Owego, NY 13827, USA",
    "geometry": {
        "location": {
            "lat": 42.108763,
            "lng": -76.252229
        },
        "location_type": "ROOFTOP",
        "viewport": {
            "northeast": {
                "lat": 42.11011198029149,
                "lng": -76.25088001970849
            },
            "southwest": {
                "lat": 42.1074140197085,
                "lng": -76.25357798029151
            }
        }
    },
    "place_id": "ChIJt6EGvkuX2okRmj5B8nUV8Vk",
    "plus_code": {
        "compound_code": "4P5X+G4 Owego, NY, United States",
        "global_code": "87J54P5X+G4"
    },
    "types": ["street_address"],
    "name": "BHCARE, INC."
}, {
    "address_components": [{
        "long_name": "346",
        "short_name": "346",
        "types": ["street_number"]
    }, {
        "long_name": "Hemingway Avenue",
        "short_name": "Hemingway Ave",
        "types": ["route"]
    }, {
        "long_name": "The Centre",
        "short_name": "The Centre",
        "types": ["neighborhood", "political"]
    }, {
        "long_name": "East Haven",
        "short_name": "East Haven",
        "types": ["locality", "political"]
    }, {
        "long_name": "New Haven County",
        "short_name": "New Haven County",
        "types": ["administrative_area_level_2", "political"]
    }, {
        "long_name": "Connecticut",
        "short_name": "CT",
        "types": ["administrative_area_level_1", "political"]
    }, {
        "long_name": "United States",
        "short_name": "US",
        "types": ["country", "political"]
    }, {
        "long_name": "06512",
        "short_name": "06512",
        "types": ["postal_code"]
    }],
    "formatted_address": "346 Hemingway Ave, East Haven, CT 06512, USA",
    "geometry": {
        "location": {
            "lat": 41.2775464,
            "lng": -72.8689678
        },
        "location_type": "ROOFTOP",
        "viewport": {
            "northeast": {
                "lat": 41.27889538029149,
                "lng": -72.86761881970848
            },
            "southwest": {
                "lat": 41.2761974197085,
                "lng": -72.8703167802915
            }
        }
    },
    "place_id": "ChIJQ2gRUsfX54kRzy5AZ7YXrsk",
    "plus_code": {
        "compound_code": "74HJ+2C East Haven, Connecticut, United States",
        "global_code": "87H974HJ+2C"
    },
    "types": ["street_address"],
    "name": "FAIR HAVEN COMMUNITY HEALTH CARE AT EAST HAVEN"
}, {
    "address_components": [{
        "long_name": "2550",
        "short_name": "2550",
        "types": ["street_number"]
    }, {
        "long_name": "Main Street",
        "short_name": "Main St",
        "types": ["route"]
    }, {
        "long_name": "North End",
        "short_name": "North End",
        "types": ["neighborhood", "political"]
    }, {
        "long_name": "Hartford",
        "short_name": "Hartford",
        "types": ["locality", "political"]
    }, {
        "long_name": "Hartford County",
        "short_name": "Hartford County",
        "types": ["administrative_area_level_2", "political"]
    }, {
        "long_name": "Connecticut",
        "short_name": "CT",
        "types": ["administrative_area_level_1", "political"]
    }, {
        "long_name": "United States",
        "short_name": "US",
        "types": ["country", "political"]
    }, {
        "long_name": "06120",
        "short_name": "06120",
        "types": ["postal_code"]
    }],
    "formatted_address": "2550 Main St, Hartford, CT 06120, USA",
    "geometry": {
        "bounds": {
            "northeast": {
                "lat": 41.78891060000001,
                "lng": -72.67123629999999
            },
            "southwest": {
                "lat": 41.7885099,
                "lng": -72.67189789999999
            }
        },
        "location": {
            "lat": 41.7887356,
            "lng": -72.6715188
        },
        "location_type": "ROOFTOP",
        "viewport": {
            "northeast": {
                "lat": 41.7900592302915,
                "lng": -72.6702181197085
            },
            "southwest": {
                "lat": 41.78736126970851,
                "lng": -72.6729160802915
            }
        }
    },
    "place_id": "ChIJjZ9Jqo1U5okRg5phJ_7cRz4",
    "types": ["premise"],
    "name": "HARTFORD BEHAVIORAL HEALTH"
}, {
    "address_components": [{
        "long_name": "226",
        "short_name": "226",
        "types": ["street_number"]
    }, {
        "long_name": "East Main Street",
        "short_name": "E Main St",
        "types": ["route"]
    }, {
        "long_name": "Johnstown",
        "short_name": "Johnstown",
        "types": ["locality", "political"]
    }, {
        "long_name": "Fulton County",
        "short_name": "Fulton County",
        "types": ["administrative_area_level_2", "political"]
    }, {
        "long_name": "New York",
        "short_name": "NY",
        "types": ["administrative_area_level_1", "political"]
    }, {
        "long_name": "United States",
        "short_name": "US",
        "types": ["country", "political"]
    }, {
        "long_name": "12095",
        "short_name": "12095",
        "types": ["postal_code"]
    }, {
        "long_name": "2618",
        "short_name": "2618",
        "types": ["postal_code_suffix"]
    }],
    "formatted_address": "226 E Main St, Johnstown, NY 12095, USA",
    "geometry": {
        "bounds": {
            "northeast": {
                "lat": 43.0071708,
                "lng": -74.360749
            },
            "southwest": {
                "lat": 43.0070363,
                "lng": -74.3608671
            }
        },
        "location": {
            "lat": 43.0070857,
            "lng": -74.3607863
        },
        "location_type": "ROOFTOP",
        "viewport": {
            "northeast": {
                "lat": 43.00845253029149,
                "lng": -74.35945906970849
            },
            "southwest": {
                "lat": 43.00575456970849,
                "lng": -74.3621570302915
            }
        }
    },
    "place_id": "ChIJlV6t2SeN3okRDVwbIUPAEqQ",
    "types": ["premise"],
    "name": "UNITED COMMUNITY & FAMILY SERVICES, INC"
}, {
    "address_components": [{
        "long_name": "331",
        "short_name": "331",
        "types": ["street_number"]
    }, {
        "long_name": "Wethersfield Avenue",
        "short_name": "Wethersfield Ave",
        "types": ["route"]
    }, {
        "long_name": "Barry Square",
        "short_name": "Barry Square",
        "types": ["neighborhood", "political"]
    }, {
        "long_name": "Hartford",
        "short_name": "Hartford",
        "types": ["locality", "political"]
    }, {
        "long_name": "Hartford County",
        "short_name": "Hartford County",
        "types": ["administrative_area_level_2", "political"]
    }, {
        "long_name": "Connecticut",
        "short_name": "CT",
        "types": ["administrative_area_level_1", "political"]
    }, {
        "long_name": "United States",
        "short_name": "US",
        "types": ["country", "political"]
    }, {
        "long_name": "06114",
        "short_name": "06114",
        "types": ["postal_code"]
    }, {
        "long_name": "1436",
        "short_name": "1436",
        "types": ["postal_code_suffix"]
    }],
    "formatted_address": "331 Wethersfield Ave, Hartford, CT 06114, USA",
    "geometry": {
        "bounds": {
            "northeast": {
                "lat": 41.7471684,
                "lng": -72.67354
            },
            "southwest": {
                "lat": 41.746419,
                "lng": -72.6741523
            }
        },
        "location": {
            "lat": 41.7468456,
            "lng": -72.6737836
        },